Name,Longitude,Latitude,2019,2019,2020,2020,2021,2021
Katie Marshall - Female,-123.249369,49.26639,Nice,RNA Seq Machine,Nice,Yarn,Nice,Tenure
Jarrett Blair - Male,-75.748095,45.448628,Nice,Luna moth cocoons,Nice,Computer Monitor,Nice,Toque
Emily Black - Female,-123.209996,49.263742,Nice,Howl's Moving Castle Blu-Ray,Nice,Effin' Birds Calendar,Nice,Justice for Mickey
Donald J. Trump - Male,-80.036104,26.677691,Naughty,Hillary Clinton Bobblehead,Naughty,Coal,Naughty,Gift card to Four Seasons Landscaping
Taylor Swift - Female,-71.854921,41.30833,Naughty,Kitten,Naughty,Wool Coat,Naughty,Red Scarf
Elon Musk - Male,-97.180907,25.994146,Naughty,Grimes Genesis Vinyl ,Naughty,Baby stroller,Naughty,Botox